{
  "id": "indore_07",
  "description": "Indore urban (7 stops)",
  "city": "Indore",
  "region": "Central India",
  "pattern": "urban",
  "mode": "driving-traffic",
  "round_trip": true,
  "stops": [
    {
      "name": "Rajwada",
      "lat": 22.7196,
      "lng": 75.8577
    },
    {
      "name": "Vijay Nagar",
      "lat": 22.753,
      "lng": 75.89
    },
    {
      "name": "Palasia",
      "lat": 22.724,
      "lng": 75.88
    },
    {
      "name": "Rau",
      "lat": 22.64,
      "lng": 75.82
    },
    {
      "name": "Airport",
      "lat": 22.7218,
      "lng": 75.8011
    },
    {
      "name": "AB Road",
      "lat": 22.73,
      "lng": 75.87
    },
    {
      "name": "Bhawarkuan",
      "lat": 22.69,
      "lng": 75.87
    }
  ]
}
